[
  {
    "locationName": "Chez Papy",
    "items": [
      {
        "title": "three",
        "location": {
          "name": "Chez Papy",
          "city": "Paris",
          "region": "Ile de France",
          "country": "France"
        },
        "tagGroups": [
          {
            "name": "Type d'événement",
            "access": "public",
            "slug": "type-devenement",
            "tags": [
              {
                "label": "Concert",
                "slug": "concert"
              },
              {
                "label": "Sortie",
                "slug": "Sortie"
              }
            ]
          }
        ]
      }
    ],
    "city": "Paris"
  },
  {
    "locationName": "Gaité Lyrique",
    "items": [
      {
        "title": "one",
        "location": {
          "name": "Gaité Lyrique",
          "city": "Paris",
          "region": "Ile de France",
          "country": "France"
        },
        "tagGroups": [
          {
            "name": "Type d'événement",
            "access": "public",
            "slug": "type-devenement",
            "tags": [
              {
                "label": "Exposition",
                "slug": "exposition"
              },
              {
                "label": "Concert",
                "slug": "concert"
              }
            ]
          }
        ]
      }
    ],
    "city": "Paris"
  },
  {
    "locationName": "L'Ossuaire de Douaumont",
    "items": [
      {
        "title": "four",
        "location": {
          "name": "L'Ossuaire de Douaumont",
          "city": "Verdun",
          "region": "Grand-Est",
          "country": "France"
        },
        "tagGroups": [
          {
            "name": "Type d'événement",
            "access": "public",
            "slug": "type-devenement",
            "tags": [
              {
                "label": "Exposition",
                "slug": "exposition"
              },
              {
                "label": "Sortie",
                "slug": "Sortie"
              }
            ]
          }
        ]
      }
    ],
    "city": "Verdun"
  },
  {
    "locationName": "Le Select",
    "items": [
      {
        "title": "two",
        "location": {
          "name": "Le Select",
          "city": "Paris",
          "region": "Ile de France",
          "country": "France"
        },
        "tagGroups": [
          {
            "name": "Type d'événement",
            "access": "public",
            "slug": "type-devenement",
            "tags": [
              {
                "label": "Exposition",
                "slug": "exposition"
              },
              {
                "label": "Sortie",
                "slug": "Sortie"
              }
            ]
          }
        ]
      }
    ],
    "city": "Paris"
  }
]
